[{
        "name": "Kiev Zhuliany International Airport",
        "city": "Kiev",
        "shortCityName": "IEV",
        "country": "Ukraine",
        "iataCode": "IEV",
        "icaoCode": "UKKK",
        "longitude": 50.40194,
        "latitude": 30.45194,
        "height": 587,
        "region": "Europe/Kiev",
        "type": "airport",
        "groupLabel": ""
    },
    {
        "city": "New York",
        "shortCityName": "NYC",
        "country": "United States",
        "longitude": 40.63980103,
        "latitude": -73.77890015,
        "height": 13,
        "region": "America/New_York",
        "type": "city",
        "groupLabel": ""
    },
    {
        "name": "John F Kennedy International Airport",
        "city": "New York",
        "shortCityName": "NYC",
        "country": "United States",
        "iataCode": "JFK",
        "icaoCode": "KJFK",
        "longitude": 40.63980103,
        "latitude": -73.77890015,
        "height": 13,
        "region": "America/New_York",
        "type": "airport",
        "groupLabel": "New York (NYC)"
    },
    {
        "name": "La Guardia Airport",
        "city": "New York",
        "shortCityName": "NYC",
        "country": "United States",
        "iataCode": "LGA",
        "icaoCode": "KLGA",
        "longitude": 40.77719879,
        "latitude": -73.87259674,
        "height": 21,
        "region": "America/New_York",
        "type": "airport",
        "groupLabel": "New York (NYC)"
    }
]